city,latitude,longitude,population
New York,40.7128,-74.0060,8419000
Los Angeles,34.0522,-118.2437,3980400
Chicago,41.8781,-87.6298,2716000
Houston,29.7604,-95.3698,2328000
Phoenix,33.4484,-112.0740,1690000
Philadelphia,39.9526,-75.1652,1584200
San Antonio,29.4241,-98.4936,1547200
San Diego,32.7157,-117.1611,1426500
Dallas,32.7767,-96.7970,1341100
San Jose,37.3382,-121.8863,1035300
